[
        {
        "__v":0,
        "_id":"59988726fd955c0edde34c6c",
        "address":"Alameda Araguaia, 2044 - 900ba Andar - Alphaville - CJS - Torre I do edif00edcio Centro Empresarial Araguaia",
        "city":"Barueri",
        "code":"BBN",
        "country":"599884a35d90c10bddd66cfa",
        "documents":        [
                        {
                "_id":"599884a35d90c10bddd66cfb",
                "isEnabled":true,
                "name":"Passport",
                "sort":1,
            },
                        {
                "_id":"59a59ab2f4c5d249b2dc90de",
                "isEnabled":true,
                "name":"RG",
                "sort":1,
            }
        ],
        "isActive":true,
        "isEnabled":true,
        "name":"Barueri",
        "sortPriority":0,
        "state":"SP",
        "timezone":"America/Sao_Paulo",
        "zipCode":"06455-000",
    },
        {
        "__v":0,
        "_id":"59988728fd955c0edde34c6f",
        "address":"Av. Pres. Vargas, 2121 - Centro - 1500ba Andar - Sala 1508",
        "city":"Ribeir00e3o Preto",
        "code":"BCC",
        "country":"599884a35d90c10bddd66cfa",
        "documents":        [
                        {
                "_id":"599884a35d90c10bddd66cfb",
                "isEnabled":true,
                "name":"Passport",
                "sort":1,
            },
                        {
                "_id":"59a59ab2f4c5d249b2dc90de",
                "isEnabled":true,
                "name":"RG",
                "sort":1,
            }
        ],
        "isActive":true,
        "isEnabled":true,
        "name":"Ribeir00e3o Preto",
        "sortPriority":0,
        "state":"SP",
        "timezone":"America/Sao_Paulo",
        "zipCode":"14025-010",
    },
        {
        "__v":0,
        "_id":"59988728fd955c0edde34c6d",
        "address":"Praia de Botafogo, 501 - Conjuntos 701 e 702",
        "city":"Rio de Janeiro",
        "code":"BAO",
        "country":"599884a35d90c10bddd66cfa",
        "documents":        [
                        {
                "_id":"599884a35d90c10bddd66cfb",
                "isEnabled":true,
                "name":"Passport",
                "sort":1,
            },
                        {
                "_id":"59a59ab2f4c5d249b2dc90de",
                "isEnabled":true,
                "name":"RG",
                "sort":1,
            }
        ],
        "isActive":true,
        "isEnabled":true,
        "name":"Sion",
        "sortPriority":0,
        "state":"RJ",
        "timezone":"America/Sao_Paulo",
        "zipCode":"22250-040",
    },
        {
        "__v":0,
        "_id":"59988728fd955c0edde34c70",
        "address":"Av. Nicomedes Alves dos Santos, 1078 - Altamira",
        "city":"Uberl00e2ndia",
        "code":"BBW",
        "country":"599884a35d90c10bddd66cfa",
        "documents":        [
                        {
                "_id":"599884a35d90c10bddd66cfb",
                "isEnabled":true,
                "name":"Passport",
                "sort":1,
            },
                        {
                "_id":"59a59ab2f4c5d249b2dc90de",
                "isEnabled":true,
                "name":"RG",
                "sort":1,
            }
        ],
        "isActive":true,
        "isEnabled":true,
        "name":"Uberl00e2ndia",
        "sortPriority":0,
        "state":"MG",
        "timezone":"America/Sao_Paulo",
        "zipCode":"38400-044",
    },
        {
        "__v":0,
        "_id":"59988728fd955c0edde34c6e",
        "address":"Av. Nossa Senhora da Penha, 1255 - Salas 101 e 102",
        "city":"Vit00f3ria",
        "code":"BES",
        "country":"599884a35d90c10bddd66cfa",
        "documents":        [
                        {
                "_id":"599884a35d90c10bddd66cfb",
                "isEnabled":true,
                "name":"Passport",
                "sort":1,
            },
                        {
                "_id":"59a59ab2f4c5d249b2dc90de",
                "isEnabled":true,
                "name":"RG",
                "sort":1,
            }
        ],
        "isActive":true,
        "isEnabled":true,
        "name":"Vit00f3ria",
        "sortPriority":0,
        "state":"ES",
        "timezone":"America/Sao_Paulo",
        "zipCode":"29055-131",
    },
        {
        "__v":0,
        "_id":"59988726fd955c0edde34c6b",
        "address":"Av. Francisco Matarazzo, 1500 - Los Angeles Tower - 300ba e 400ba Andares",
        "city":"S00e3o Paulo",
        "code":"BAE",
        "country":"599884a35d90c10bddd66cfa",
        "documents":        [
                        {
                "_id":"599884a35d90c10bddd66cfb",
                "isEnabled":true,
                "name":"Passport",
                "sort":1,
            },
                        {
                "_id":"59a59ab2f4c5d249b2dc90de",
                "isEnabled":true,
                "name":"RG",
                "sort":1,
            }
        ],
        "isActive":true,
        "isEnabled":true,
        "name":"00c1gua Branca",
        "sortPriority":0,
        "state":"SP",
        "timezone":"America/Sao_Paulo",
        "zipCode":"05001-100",
    },
        {
        "__v":0,
        "_id":"599884a45d90c10bddd66d07",
        "address":"Av. Governador Jose Malcher #815",
        "city":"Belem",
        "code":"BPA",
        "country":"599884a35d90c10bddd66cfa",
        "documents":        [
                        {
                "_id":"599884a35d90c10bddd66cfb",
                "isEnabled":true,
                "name":"Passport",
                "sort":1,
            },
                        {
                "_id":"59a59ab2f4c5d249b2dc90de",
                "isEnabled":true,
                "name":"RG",
                "sort":1,
            }
        ],
        "isActive":true,
        "isEnabled":true,
        "location":        {
            "lat":"-1.449984",
            "lng":"-48.482774",
        },
        "name":"Belem [BPA]",
        "sortPriority":3,
        "state":"PA",
        "timezone":"America/Belem",
        "zipCode":"66055-260",
    },
        {
        "__v":0,
        "_id":"599884a45d90c10bddd66d1d",
        "address":"Rua Eng. Francisco De Pitta Brito 1",
        "city":"Sao Paulo",
        "code":"BAW",
        "country":"599884a35d90c10bddd66cfa",
        "documents":        [
                        {
                "_id":"599884a35d90c10bddd66cfb",
                "isEnabled":true,
                "name":"Passport",
                "sort":1,
            },
                        {
                "_id":"59a59ab2f4c5d249b2dc90de",
                "isEnabled":true,
                "name":"RG",
                "sort":1,
            }
        ],
        "isActive":true,
        "isEnabled":true,
        "location":        {
            "lat":"-23.654111",
            "lng":"-46.716774",
        },
        "name":"Birmann 9 [BAW]",
        "sortPriority":3,
        "state":"SP",
        "timezone":"America/Sao_Paulo",
        "zipCode":"04753-080",
    },

        {
        "__v":0,
        "_id":"599884a45d90c10bddd66d27",
        "address":"Scn Quadra 4, Bloco B,  N.100",
        "city":"Brasilia",
        "code":"BBS",
        "country":"599884a35d90c10bddd66cfa",
        "documents":        [
                        {
                "_id":"599884a35d90c10bddd66cfb",
                "isEnabled":true,
                "name":"Passport",
                "sort":1,
            },
                        {
                "_id":"59a59ab2f4c5d249b2dc90de",
                "isEnabled":true,
                "name":"RG",
                "sort":1,
            }
        ],
        "isActive":true,
        "isEnabled":true,
        "location":        {
            "lat":"-15.78607979",
            "lng":"-47.8870761",
        },
        "name":"Brasilia [BBS]",
        "sortPriority":3,
        "state":"DF",
        "timezone":"America/Sao_Paulo",
        "zipCode":"70714-900",
    },
        {
        "__v":0,
        "_id":"599884a45d90c10bddd66d00",

        "address":"Av. Dr. Moraes Sales, 668",
        "city":"Campinas",
        "code":"BDV",
        "country":"599884a35d90c10bddd66cfa",
        "documents":        [
                        {
                "_id":"599884a35d90c10bddd66cfb",
                "isEnabled":true,
                "name":"Passport",
                "sort":1,
            },
                        {
                "_id":"59a59ab2f4c5d249b2dc90de",
                "isEnabled":true,
                "name":"RG",
                "sort":1,
            }
        ],
        "isActive":true,
        "isEnabled":true,
        "location":        {
            "lat":"-22.906188",
            "lng":"-47.055485",
        },
        "name":"Campinas [BDV]",
        "sortPriority":3,
        "state":"SP",
        "timezone":"America/Sao_Paulo",
        "zipCode":"13010-001",
    },
        {
        "__v":0,
        "_id":"599884a45d90c10bddd66cff",
        "address":"Av. Dolores Alcaraz Caldas #90",
        "city":"Porto Alegre",
        "code":"BBU",
        "country":"599884a35d90c10bddd66cfa",
        "documents":        [
                        {
                "_id":"599884a35d90c10bddd66cfb",
                "isEnabled":true,
                "name":"Passport",
                "sort":1,
            },
                        {
                "_id":"59a59ab2f4c5d249b2dc90de",
                "isEnabled":true,
                "name":"RG",
                "sort":1,
            }
        ],
        "isActive":true,
        "isEnabled":true,
        "location":        {
            "lat":"-30.045715",
            "lng":"-51.230059",
        },
        "name":"Centro Empresarial Gua00edba [BBU]",
        "sortPriority":3,
        "state":"RS",
        "timezone":"America/Sao_Paulo",
        "zipCode":"90110-180",
    },
        {
        "__v":0,
        "_id":"599884a45d90c10bddd66d22",
        "address":"Rua Maria Luiza Santiago 200",
        "city":"Belo Horizonte",
        "code":"BCY",
        "country":"599884a35d90c10bddd66cfa",
        "documents":        [
                        {
                "_id":"599884a35d90c10bddd66cfb",
                "isEnabled":true,
                "name":"Passport",
                "sort":1,
            },
                        {
                "_id":"59a59ab2f4c5d249b2dc90de",
                "isEnabled":true,
                "name":"RG",
                "sort":1,
            }
        ],
        "isActive":true,
        "isEnabled":true,
        "location":        {
            "lat":"-19.9753971",
            "lng":"-43.9502",
        },
        "name":"Century Tower [BCY]",
        "sortPriority":3,
        "state":"MG",
        "timezone":"America/Sao_Paulo",
        "zipCode":"30360-740",
    },
        {
        "__v":0,
        "_id":"599884a45d90c10bddd66d09",
        "address":"Av. Marechal Deodoro #717",
        "city":"Curitiba",
        "code":"BPR",
        "country":"599884a35d90c10bddd66cfa",
        "documents":        [
                        {
                "_id":"599884a35d90c10bddd66cfb",
                "isEnabled":true,
                "name":"Passport",
                "sort":1,
            },
                        {
                "_id":"59a59ab2f4c5d249b2dc90de",
                "isEnabled":true,
                "name":"RG",
                "sort":1,
            }
        ],
        "isActive":true,
        "isEnabled":true,
        "location":        {
            "lat":"-25.429449",
            "lng":"-49.265766",
        },
        "name":"Curitiba [BPR]",
        "sortPriority":3,
        "state":"PR",
        "timezone":"America/Sao_Paulo",
        "zipCode":"80020-320",
    },
        {
        "__v":0,
        "_id":"599884a45d90c10bddd66d1a",
        "address":"Rua Adolfo Melo #35",
        "city":"Florianopolis",
        "code":"BSC",
        "country":"599884a35d90c10bddd66cfa",
        "documents":        [
                        {
                "_id":"599884a35d90c10bddd66cfb",
                "isEnabled":true,
                "name":"Passport",
                "sort":1,
            },
                        {
                "_id":"59a59ab2f4c5d249b2dc90de",
                "isEnabled":true,
                "name":"RG",
                "sort":1,
            }
        ],
        "isActive":true,
        "isEnabled":true,
        "location":        {
            "lat":"-27.593339",
            "lng":"-48.552008",
        },
        "name":"Florianopolis [BSC]",
        "sortPriority":3,
        "state":"SC",
        "timezone":"America/Sao_Paulo",
        "zipCode":"88015-090",
    },
        {
        "__v":0,
        "_id":"599884a45d90c10bddd66d0f",
        "address":"Av. Santos Dumont 1789 S.213",
        "city":"Fortaleza",
        "code":"BLI",
        "country":"599884a35d90c10bddd66cfa",
        "documents":        [
                        {
                "_id":"599884a35d90c10bddd66cfb",
                "isEnabled":true,
                "name":"Passport",
                "sort":1,
            },
                        {
                "_id":"59a59ab2f4c5d249b2dc90de",
                "isEnabled":true,
                "name":"RG",
                "sort":1,
            }
        ],
        "isActive":true,
        "isEnabled":true,
        "location":        {
            "lat":"-3.733252",
            "lng":"-38.50757",
        },
        "name":"Fortaleza [BLI]",
        "sortPriority":3,
        "state":"CE",
        "timezone":"America/Fortaleza",
        "zipCode":"61150-060",
    },
        {
        "__v":0,
        "_id":"599884a45d90c10bddd66d19",
        "address":"Rua 6, N.370, 15 Andar",
        "city":"Goiania",
        "code":"BGN",
        "country":"599884a35d90c10bddd66cfa",
        "documents":        [
                        {
                "_id":"599884a35d90c10bddd66cfb",
                "isEnabled":true,
                "name":"Passport",
                "sort":1,
            },
                        {
                "_id":"59a59ab2f4c5d249b2dc90de",
                "isEnabled":true,
                "name":"RG",
                "sort":1,
            }
        ],
        "isActive":true,
        "isEnabled":true,
        "location":        {
            "lat":"-16.683165",
            "lng":"-49.266205",
        },
        "name":"Goiania [BGN]",
        "sortPriority":3,
        "state":"GO",
        "timezone":"America/Sao_Paulo",
        "zipCode":"74115-070",
    },
        {
        "__v":0,
        "_id":"599884a45d90c10bddd66d17",
        "address":"Rd J Fco Aguirre Proenca Km 9",
        "city":"Hortolandia",
        "code":"BMM",
        "country":"599884a35d90c10bddd66cfa",
        "documents":        [
                        {
                "_id":"599884a35d90c10bddd66cfb",
                "isEnabled":true,
                "name":"Passport",
                "sort":1,
            },
                        {
                "_id":"59a59ab2f4c5d249b2dc90de",
                "isEnabled":true,
                "name":"RG",
                "sort":1,
            }
        ],
        "isActive":true,
        "isEnabled":true,
        "location":        {
            "lat":"-22.899421",
            "lng":"-47.200892",
        },
        "name":"Hortolandia [BMM]",
        "sortPriority":3,
        "state":"SP",
        "timezone":"America/Sao_Paulo",
        "zipCode":"13186-900",
    },
        {
        "__v":0,
        "_id":"599884a45d90c10bddd66d23",
        "address":"Rua Placido Gomes # 610, 1st Fl. Ro",
        "city":"Joinville",
        "code":"BCD",
        "country":"599884a35d90c10bddd66cfa",
        "documents":        [
                        {
                "_id":"599884a35d90c10bddd66cfb",
                "isEnabled":true,
                "name":"Passport",
                "sort":1,
            },
                        {
                "_id":"59a59ab2f4c5d249b2dc90de",
                "isEnabled":true,
                "name":"RG",
                "sort":1,
            }
        ],
        "isActive":true,
        "isEnabled":true,
        "location":        {
            "lat":"-26.312953",
            "lng":"-48.849425",
        },
        "name":"Joinville [BCD]",
        "sortPriority":3,
        "state":"SC",
        "timezone":"America/Sao_Paulo",
        "zipCode":"89202-050",
    },
        {
        "__v":0,
        "_id":"599884a45d90c10bddd66d0b",

        "address":"Av. Nacoes Unidas 12901",
        "city":"Sao Paulo",
        "code":"BLA",
        "country":"599884a35d90c10bddd66cfa",
        "documents":        [
                        {
                "_id":"599884a35d90c10bddd66cfb",
                "isEnabled":true,
                "name":"Passport",
                "sort":1,
            },
                        {
                "_id":"59a59ab2f4c5d249b2dc90de",
                "isEnabled":true,
                "name":"RG",
                "sort":1,
            }
        ],
        "isActive":true,
        "isEnabled":true,
        "location":        {
            "lat":"-23.609329",
            "lng":"-46.697654",
        },
        "name":"La Headquarter [BLA]",
        "sortPriority":3,
        "state":"SP",
        "timezone":"America/Sao_Paulo",
        "zipCode":"04578-000",
    },
        {
        "__v":0,
        "_id":"599884a45d90c10bddd66d13",
        "address":"Ave. Constantino Nery 4165",
        "city":"Manaus",
        "code":"BMN",
        "country":"599884a35d90c10bddd66cfa",
        "documents":        [
                        {
                "_id":"599884a35d90c10bddd66cfb",
                "isEnabled":true,
                "name":"Passport",
                "sort":1,
            },
                        {
                "_id":"59a59ab2f4c5d249b2dc90de",
                "isEnabled":true,
                "name":"RG",
                "sort":1,
            }
        ],
        "isActive":true,
        "isEnabled":true,
        "location":        {
            "lat":"-3.0880921",
            "lng":"-60.0266791",
        },
        "name":"Manaus [BMN]",
        "sortPriority":3,
        "state":"AM",
        "timezone":"America/Boa_Vista",
        "zipCode":"69058-795",
    },
        {
        "__v":0,
        "_id":"599884a45d90c10bddd66d0c",
        "address":"Av. Pasteur 146 & 138",
        "city":"Rio De Janeiro",
        "code":"BMA",
        "country":"599884a35d90c10bddd66cfa",
        "documents":        [
                        {
                "_id":"599884a35d90c10bddd66cfb",
                "isEnabled":true,
                "name":"Passport",
                "sort":1,
            },
                        {
                "_id":"59a59ab2f4c5d249b2dc90de",
                "isEnabled":true,
                "name":"RG",
                "sort":1,
            }
        ],
        "isActive":true,
        "isEnabled":true,
        "location":        {
            "lat":"-22.950186",
            "lng":"-43.176843",
        },
        "name":"Pasteur [BMA]",
        "sortPriority":3,
        "state":"RJ",
        "timezone":"Japan",
        "zipCode":"22290-240",
    },
        {
        "__v":0,
        "_id":"599884a45d90c10bddd66d1c",
        "address":"Rua Cais Do Apolo #222",
        "city":"Recife",
        "code":"C1E",
        "country":"599884a35d90c10bddd66cfa",
        "documents":        [
                        {
                "_id":"599884a35d90c10bddd66cfb",
                "isEnabled":true,
                "name":"Passport",
                "sort":1,
            },
                        {
                "_id":"59a59ab2f4c5d249b2dc90de",
                "isEnabled":true,
                "name":"RG",
                "sort":1,
            }
        ],
        "isActive":true,
        "isEnabled":true,
        "location":        {
            "lat":"-8.063174200000001",
            "lng":"-34.876342",
        },
        "name":"Recife [C1E]",
        "sortPriority":3,
        "state":"PE",
        "timezone":"America/Recife",
        "zipCode":"50030-905",
    },
        {
        "__v":0,
        "_id":"599884a45d90c10bddd66d11",
        "address":"Av. Tancredo Neves 450",
        "city":"Salvador",
        "code":"C0Z",
        "country":"599884a35d90c10bddd66cfa",
        "documents":        [
                        {
                "_id":"599884a35d90c10bddd66cfb",
                "isEnabled":true,
                "name":"Passport",
                "sort":1,
            },
                        {
                "_id":"59a59ab2f4c5d249b2dc90de",
                "isEnabled":true,
                "name":"RG",
                "sort":1,
            }
        ],
        "isActive":true,
        "isEnabled":true,
        "location":        {
            "lat":"-12.9786696",
            "lng":"-38.46261",
        },
        "name":"Salvador [C0Z]",
        "sortPriority":3,
        "state":"BA",
        "timezone":"America/Fortaleza",
        "zipCode":"41820-020",
    },
        {
        "__v":0,
        "_id":"599884a45d90c10bddd66d16",
        "address":"Estrada Campo Limpo 4519",
        "city":"Sao Paulo",
        "code":"BDW",
        "country":"599884a35d90c10bddd66cfa",
        "documents":        [
                        {
                "_id":"599884a35d90c10bddd66cfb",
                "isEnabled":true,
                "name":"Passport",
                "sort":1,
            },
                        {
                "_id":"59a59ab2f4c5d249b2dc90de",
                "isEnabled":true,
                "name":"RG",
                "sort":1,
            }
        ],
        "isActive":true,
        "isEnabled":true,
        "location":        {
            "lat":"-23.624735",
            "lng":"-46.764751",
        },
        "name":"Sao Paulo [BDW]",
        "sortPriority":3,
        "state":"SP",
        "timezone":"America/Sao_Paulo",
        "zipCode":"05787-000",
    },
        {
        "__v":0,
        "_id":"599884a45d90c10bddd66d18",
        "address":"Rua 12 De Outubro 125",
        "city":"Sao Paulo",
        "code":"BEN",
        "country":"599884a35d90c10bddd66cfa",
        "documents":        [
                        {
                "_id":"599884a35d90c10bddd66cfb",
                "isEnabled":true,
                "name":"Passport",
                "sort":1,
            },
                        {
                "_id":"59a59ab2f4c5d249b2dc90de",
                "isEnabled":true,
                "name":"RG",
                "sort":1,
            }
        ],
        "isActive":true,
        "isEnabled":true,
        "location":        {
            "lat":"-23.51941011",
            "lng":"-46.70343845",
        },
        "name":"Sao Paulo [BEN]",
        "sortPriority":3,
        "state":"SP",
        "timezone":"America/Sao_Paulo",
        "zipCode":"05073-001",
    },
        {
        "__v":0,
        "_id":"599884a45d90c10bddd66d08",
        "address":"Av. Lins De Vasconcelos 2362",
        "city":"Sao Paulo",
        "code":"BEU",
        "country":"599884a35d90c10bddd66cfa",
        "documents":        [
                        {
                "_id":"599884a35d90c10bddd66cfb",
                "isEnabled":true,
                "name":"Passport",
                "sort":1,
            },
                        {
                "_id":"59a59ab2f4c5d249b2dc90de",
                "isEnabled":true,
                "name":"RG",
                "sort":1,
            }
        ],
        "isActive":true,
        "isEnabled":true,
        "location":        {
            "lat":"-23.576513",
            "lng":"-46.623668",
        },
        "name":"Sao Paulo [BEU]",
        "sortPriority":3,
        "state":"SP",
        "timezone":"America/Sao_Paulo",
        "zipCode":"04112-001",
    },
        {
        "__v":0,
        "_id":"599884a45d90c10bddd66d14",
        "address":"Avenida Presidente Juscelino Kubits",
        "city":"Sao Paulo",
        "code":"BFG",
        "country":"599884a35d90c10bddd66cfa",
        "documents":        [
                        {
                "_id":"599884a35d90c10bddd66cfb",
                "isEnabled":true,
                "name":"Passport",
                "sort":1,
            },
                        {
                "_id":"59a59ab2f4c5d249b2dc90de",
                "isEnabled":true,
                "name":"RG",
                "sort":1,
            }
        ],
        "isActive":true,
        "isEnabled":true,
        "location":        {
            "lat":"-23.591471",
            "lng":"-46.687436",
        },
        "name":"Sao Paulo [BFG]",
        "sortPriority":3,
        "state":"SP",
        "timezone":"America/Sao_Paulo",
        "zipCode":"04543-907",
    },
        {
        "__v":0,
        "_id":"599884a45d90c10bddd66d26",
        "address":"Rua Tutoia 1157",
        "city":"Sao Paulo",
        "code":"BTU",
        "country":"599884a35d90c10bddd66cfa",
        "documents":        [
                        {
                "_id":"599884a35d90c10bddd66cfb",
                "isEnabled":true,
                "name":"Passport",
                "sort":1,
            },
                        {
                "_id":"59a59ab2f4c5d249b2dc90de",
                "isEnabled":true,
                "name":"RG",
                "sort":1,
            }
        ],
        "isActive":true,
        "isEnabled":true,
        "location":        {
            "lat":"-23.580626",
            "lng":"-46.650181",
        },
        "name":"Tutoia [BTU]",
        "sortPriority":3,
        "state":"SP",
        "timezone":"America/Sao_Paulo",
        "zipCode":"04007-900",
    }
]